[
  {
    "location_name": "Station de Recharge",
    "category": "Autre",
    "aliases": ["Robot Station", "Recharge", "Station de recharge robot", "Charging Station", "Robot Charging Station", "Robot home base"],
    "description": "Station de recharge pour le robot assistant, située à proximité du forum pour un accès facile.",
    "building": "Bâtiment Emines",
    "floor": "RDC",
    "accessible": true,
    "coordinates": {
      "latitude": 40.7128,
      "longitude": -74.006
    }
  },
  {
    "location_name": "Accueil",
    "category": "Administratif",
    "aliases": [
      "reception",
      "accueil principal",
      "information",
      "front desk",
      "help desk",
      "welcome desk",
      "reception hall"
    ],
    "description": "Accueil principal de l'école pour les visiteurs et les étudiants.",
    "building": "Bâtiment Emines",
    "floor": "RDC",
    "accessible": true,
    "coordinates": {
      "latitude": 40.7128,
      "longitude": -74.006
    }
  },
  {
    "location_name": "Administration",
    "category": "Administratif",
    "aliases": [
      "bureau administration",
      "direction",
      "directeur",
      "director",
      "Nicolas Cheimanoff",
      "director office",
      "director's office"
    ],
    "description": "Bureau principal de l'administration pour les démarches administratives.",
    "building": "Bâtiment Emines",
    "floor": "RDC",
    "accessible": true,
    "coordinates": {
      "latitude": 40.7128,
      "longitude": -74.006
    }
  },
  {
    "location_name": "Bureau d'Aide Financière",
    "category": "Administratif",
    "aliases": [
      "aide financiere",
      "bourses",
      "financement",
      "Khadija Ait Heddouche",
      "financial aid",
      "scholarships",
      "finance office"
    ],
    "description": "Services d'aide financière, bourses et accompagnement administratif.",
    "building": "Bâtiment Emines",
    "floor": "RDC",
    "accessible": true,
    "coordinates": {
      "latitude": 40.7128,
      "longitude": -74.006
    }
  },
  {
    "location_name": "Bureau des Admissions",
    "category": "Administratif",
    "aliases": [
      "admissions",
      "inscription"
    ],
    "description": "Services des admissions, candidatures et inscriptions académiques.",
    "building": "Bâtiment Emines",
    "floor": "RDC",
    "accessible": true,
    "coordinates": {
      "latitude": 40.7128,
      "longitude": -74.006
    }
  },
  {
    "location_name": "Affaires Étudiantes",
    "category": "Administratif",
    "aliases": [
      "affaires etudiantes",
      "vie etudiante",
      "student affairs"
    ],
    "description": "Bureau des affaires étudiantes pour l'accompagnement de la vie sur campus.",
    "building": "Bâtiment Emines",
    "floor": "RDC",
    "accessible": true,
    "coordinates": {
      "latitude": 40.7128,
      "longitude": -74.006
    }
  },
  {
    "location_name": "Bureau d'Ordre",
    "category": "Services",
    "aliases": [
      "courrier",
      "bureau ordre",
      "commandes"
    ],
    "description": "Le bureau d'ordre gère la réception et la distribution du courrier et des colis pour les étudiants et le personnel de l'école. Il est situé dans la salle de réception.",
    "building": "Bâtiment Emines",
    "floor": "RDC",
    "accessible": true,
    "coordinates": {
      "latitude": 40.7128,
      "longitude": -74.006
    }
  },
  {
    "location_name": "Centre de santé",
    "category": "Santé",
    "aliases": [
      "sante",
      "medical",
      "infirmerie",
      "centre medical",
      "health center",
      "medical center",
      "clinic"
    ],
    "description": "Services médicaux et counselling santé pour les étudiants et le personnel.",
    "building": "Bâtiment Emines",
    "floor": "RDC",
    "accessible": true,
    "coordinates": {
      "latitude": 40.7133,
      "longitude": -74.0065
    }
  },
  {
    "location_name": "Laboratoire de Physique Expérimentale",
    "category": "Laboratoire",
    "aliases": [
      "lab physique",
      "physique experimentale",
      "laboratoire pe"
    ],
    "description": "Laboratoire dédié aux expériences pratiques et démonstrations en physique.",
    "building": "Bâtiment des Sciences",
    "floor": "RDC",
    "accessible": true,
    "coordinates": {
      "latitude": 40.7131,
      "longitude": -74.0063
    }
  },
  {
    "location_name": "Laboratoire de Projet d'Ingénierie",
    "category": "Laboratoire",
    "aliases": [
      "projet ingenierie",
      "laboratoire pi",
      "lab ingenierie"
    ],
    "description": "Espace de prototypage et de réalisation pour les projets d'ingénierie.",
    "building": "Bâtiment Emines",
    "floor": "RDC",
    "accessible": true,
    "coordinates": {
      "latitude": 40.713,
      "longitude": -74.0062
    }
  },
  {
    "location_name": "Laboratoire de Mécatronique",
    "category": "Laboratoire",
    "aliases": [
      "mecatronique",
      "lab mecatronique"
    ],
    "description": "Laboratoire équipé pour les systèmes embarqués, robots et projets mécatroniques.",
    "building": "Bâtiment Emines",
    "floor": "RDC",
    "accessible": true,
    "coordinates": {
      "latitude": 40.713,
      "longitude": -74.0062
    }
  },
  {
    "location_name": "Cafétéria",
    "category": "Alimentation",
    "aliases": [
      "cafeteria",
      "cantine",
      "repas",
      "restauration",
      "dining hall",
      "food court"
    ],
    "description": "Cafétéria principale proposant repas, boissons et pauses rapides sur le campus.",
    "building": "Bâtiment Emines",
    "floor": "RDC",
    "accessible": true,
    "coordinates": {
      "latitude": 40.7132,
      "longitude": -74.0064
    }
  },
  {
    "location_name": "Radio Étudiante",
    "category": "Média",
    "aliases": [
      "radio",
      "studio radio"
    ],
    "description": "Studio de radio étudiante pour émissions, podcasts et productions audio.",
    "building": "Bâtiment Emines",
    "floor": "RDC",
    "accessible": true,
    "coordinates": {
      "latitude": 40.7132,
      "longitude": -74.0064
    }
  },
  {
    "location_name": "Foyer Étudiant",
    "category": "Détente",
    "aliases": [
      "salon",
      "detente",
      "repos",
      "lounge",
      "student lounge",
      "hangout spot",
      "common area",
      "foyer des étudiants",
      "foyer etudiant",
      "foyer Emines"
    ],
    "description": "Espace de détente et de repos pour les étudiants et de jeux collectifs.",
    "building": "Bâtiment Emines",
    "floor": "RDC",
    "accessible": true,
    "coordinates": {
      "latitude": 40.7132,
      "longitude": -74.0064
    }
  },
  {
    "location_name": "Bureau E-tech",
    "category": "Clubs",
    "aliases": [
      "etech",
      "club e-tech",
      "technologie",
      "fabrication",
      "projets innovants",
      "robotique"
    ],
    "description": "Bureau du club E-tech pour les activités liées à la technologie, la fabrication, et les projets innovants. Le materiel de fabrication du club est disponible dans ce bureau pour les étudiants qui souhaitent travailler sur leurs projets personnels ou collaboratifs.",
    "building": "Bâtiment Emines",
    "floor": "RDC",
    "accessible": true,
    "coordinates": {
      "latitude": 40.7134,
      "longitude": -74.0066
    }
  },
  {
    "location_name": "Bureau E-olive",
    "category": "Clubs",
    "aliases": [
      "eolive",
      "club e-olive",
      "oliviers",
      "huile d'olive"
    ],
    "description": "Bureau du club E-olive part de E-solidarity pour l'activité de cultuvations d'oliviers du campus et pressage d'huile d'olive.",
    "building": "Bâtiment Emines",
    "floor": "RDC",
    "accessible": true,
    "coordinates": {
      "latitude": 40.7134,
      "longitude": -74.0066
    }
  },
  {
    "location_name": "Bureau E-mix",
    "category": "Clubs",
    "aliases": [
      "emix",
      "club e-mix",
      "dj",
      "mixing"
    ],
    "description": "Bureau du club E-mix pour le mixing musical et le DJing.",
    "building": "Bâtiment Emines",
    "floor": "RDC",
    "accessible": true,
    "coordinates": {
      "latitude": 40.7134,
      "longitude": -74.0066
    }
  },
  {
    "location_name": "Service d'Impression",
    "category": "Services",
    "aliases": [
      "impression",
      "photocopie",
      "print"
    ],
    "description": "Services d'impression, photocopies et documents pour les étudiants.",
    "building": "Bâtiment Emines",
    "floor": "RDC",
    "accessible": true,
    "coordinates": {
      "latitude": 40.7133,
      "longitude": -74.0065
    }
  }
]